City_ID,City,Lat,Lng,Max Temp,Humidity,Cloudiness,Wind Speed,Country,Date
0,adamstown,-25.066,-130.1015,22.98,76,7,7.58,PN,1733784057
1,callao,-12.0667,-77.15,23.73,77,0,5.66,PE,1733783976
2,grytviken,-54.2811,-36.5092,1.31,73,24,4.05,GS,1733783828
3,great falls,47.5002,-111.3008,4.25,37,100,6.69,US,1733784061
4,lauro de freitas,-12.8944,-38.3272,27.01,69,20,6.69,BR,1733784058
5,badger,64.8,-147.5333,1.95,75,75,2.57,US,1733783873
6,ust-nera,64.5667,143.2,-23.78,99,100,1.39,RU,1733783912
7,usogorsk,63.4106,48.6872,-6.6,95,97,3.42,RU,1733784068
8,tiksi,71.6872,128.8694,-28.27,99,85,2.44,RU,1733784069
9,constantia,44.1833,28.65,6.5,83,3,3.01,RO,1733784071
10,mejit,10.2753,170.8646,27.85,71,19,8.2,MH,1733783846
11,korla,41.7597,86.1469,-3.19,95,100,2.22,CN,1733783952
12,la passe,45.5549,-0.8967,6.02,80,100,5.61,FR,1733784074
13,college,64.8569,-147.8028,1.99,75,75,2.57,US,1733784075
14,altamont,42.2068,-121.7372,5.99,62,0,1.34,US,1733784077
15,bethel,41.3712,-73.414,8.05,89,100,4.12,US,1733783976
16,saudarkrokur,65.7461,-19.6394,1.96,67,23,11.92,IS,1733784080
17,unai,-16.3575,-46.9061,26.22,61,88,0.33,BR,1733784081
18,azangaro,-14.9167,-70.2167,11.2,63,99,2.5,PE,1733784083
19,carnarvon,-24.8667,113.6333,23.78,83,100,2.1,AU,1733784084
20,thompson,55.7435,-97.8558,-11.91,85,100,1.54,CA,1733784085
21,namibe,-15.1961,12.1522,23.69,72,56,0.27,AO,1733784086
22,cassilandia,-19.1133,-51.7342,25.65,73,100,0.35,BR,1733784087
23,puerto natales,-51.7236,-72.4875,13.25,50,75,8.23,CL,1733784089
24,castillos,-34.1667,-53.8333,14.71,72,14,3.2,UY,1733784090
25,port-aux-francais,-49.35,70.2167,3.79,77,94,12.48,TF,1733784091
26,iqaluit,63.7506,-68.5145,-20.73,70,0,4.63,CA,1733784092
27,waitangi,-43.9535,-176.5597,14.06,97,98,3.62,NZ,1733784093
28,yakeshi,49.2833,120.7333,-24.9,100,100,2.35,CN,1733784094
29,margaret river,-33.95,115.0667,14.98,73,0,5.6,AU,1733784095
30,iskateley,67.6803,53.1512,-0.44,94,100,6.52,RU,1733784096
31,hawaiian paradise park,19.5933,-154.9731,27.16,79,40,4.12,US,1733784098
32,invercargill,-46.4,168.35,11.68,83,97,4.02,NZ,1733784099
33,nar'yan-mar,67.6713,53.087,-0.48,94,100,6.49,RU,1733784100
34,punta arenas,-53.15,-70.9167,12.06,54,0,7.72,CL,1733783927
35,mar del plata,-38.0023,-57.5575,18.86,69,1,0.89,AR,1733784063
36,wailua homesteads,22.0669,-159.378,25.44,83,20,5.14,US,1733784103
37,manacapuru,-3.2997,-60.6206,27.5,78,69,1.66,BR,1733784104
38,bilibino,68.0546,166.4372,-27.54,97,87,0.48,RU,1733784105
39,nampula,-15.1165,39.2666,24.97,78,75,3.6,MZ,1733784107
40,albany,42.6001,-73.9662,1.41,94,100,0.73,US,1733784108
41,vernal,40.4555,-109.5287,1.84,35,100,6.69,US,1733784085
42,olonkinbyen,70.9221,-8.7187,-4.75,84,99,4.09,SJ,1733784111
43,yellowknife,62.456,-114.3525,-23.1,92,20,5.14,CA,1733783840
44,barvinkove,48.9097,37.0205,2.38,88,92,5.8,UA,1733784113
45,lodwar,3.1191,35.5973,29.0,39,57,4.08,KE,1733784115
46,dryden,49.7833,-92.7503,-9.84,85,100,2.57,CA,1733783885
47,castellammare del golfo,38.0188,12.8858,12.62,91,85,3.58,IT,1733784117
48,conduaga,8.862,117.4893,25.78,88,100,1.29,PH,1733783937
49,sarmiento,-45.5882,-69.07,19.45,30,75,9.36,AR,1733784119
50,badamdar,40.3394,49.8039,4.97,63,92,6.21,AZ,1733784120
51,trn,44.8597,17.2364,3.84,100,100,1.54,BA,1733784121
52,hermanus,-34.4187,19.2345,14.89,71,100,0.66,ZA,1733784122
53,ola,59.5833,151.2833,-14.61,80,94,5.54,RU,1733784124
54,port mathurin,-19.6833,63.4167,24.77,78,100,6.37,MU,1733784125
55,brookings,44.3114,-96.7984,-2.12,79,100,9.77,US,1733784126
56,manta,-0.95,-80.7333,27.88,65,40,5.14,EC,1733784005
57,puerto ayora,-0.7393,-90.3518,23.08,92,73,2.24,EC,1733783916
58,borogontsy,62.6683,131.1683,-26.76,98,100,1.79,RU,1733784129
59,touros,-5.1989,-35.4608,26.08,72,78,6.67,BR,1733784130
60,khandyga,62.6667,135.6,-34.43,100,90,1.03,RU,1733784131
61,longyearbyen,78.2186,15.6401,-3.09,68,75,5.66,SJ,1733784133
62,remire-montjoly,4.9167,-52.2667,27.02,89,75,2.06,GF,1733784134
63,ballina,-28.8667,153.5667,24.17,89,100,3.87,AU,1733784135
64,zhangzhou,24.5133,117.6556,11.66,94,4,0.9,CN,1733784137
65,bear valley springs,35.1591,-118.6284,15.16,28,6,0.97,US,1733784138
66,anaconda,46.1285,-112.9423,-2.57,61,82,2.88,US,1733784139
67,alaghsas,17.0187,8.0168,19.67,20,7,4.23,NE,1733784140
68,fort stockton,30.894,-102.8793,23.03,12,20,6.17,US,1733784128
69,diego de almagro,-26.3667,-70.05,21.89,32,57,3.68,CL,1733784143
70,naze,28.3667,129.4833,13.51,61,74,3.47,JP,1733784144
71,beykonak,36.3257,30.303,16.46,82,98,2.52,TR,1733784145
72,reyes,-14.3167,-67.3833,30.98,62,20,2.57,BO,1733784146
73,manokwari,-0.8667,134.0833,26.57,83,66,1.21,ID,1733784147
74,ribeira grande,38.5167,-28.7,18.76,81,100,9.39,PT,1733784148
75,enoch,37.7733,-113.0244,2.14,41,0,6.69,US,1733784150
76,balabac,7.9868,117.0645,27.78,83,100,5.63,PH,1733784152
77,bubaque,11.2833,-15.8333,26.4,63,79,4.33,GW,1733784153
78,port alfred,-33.5906,26.891,22.88,95,59,1.34,ZA,1733784154
79,ormara,25.2088,64.6357,21.45,44,1,3.29,PK,1733784155
80,choibalsan,48.0667,114.5,-10.33,73,99,2.41,MN,1733784156
81,kodiak,57.79,-152.4072,6.73,93,100,8.75,US,1733784157
82,salanso,12.1833,-4.0833,23.49,20,16,2.56,BF,1733784159
83,san antonio de pale,-1.4014,5.6325,26.42,81,90,1.73,GQ,1733784160
84,talnakh,69.4865,88.3972,-12.99,96,100,5.89,RU,1733784161
85,uliastay,47.7417,96.8444,-16.03,73,96,2.18,MN,1733784162
86,mangai,-4.05,19.5333,22.08,84,61,0.29,CD,1733784163
87,yuzhno-kurilsk,44.0306,145.8556,-0.83,58,100,12.28,RU,1733784165
88,vigan,17.5747,120.3869,25.18,74,68,3.6,PH,1733784166
89,kidal,18.4411,1.4078,17.6,14,7,3.29,ML,1733784168
90,port macquarie,-31.4333,152.9167,26.71,79,67,1.24,AU,1733784169
91,georgetown,5.4112,100.3354,25.96,83,40,2.57,MY,1733784041
92,lihue,21.9789,-159.3672,25.77,78,20,5.14,US,1733783948
93,newman,37.3138,-121.0208,13.91,61,1,2.68,US,1733784172
94,hamilton,39.1834,-84.5333,12.1,86,100,3.6,US,1733784173
95,laguna,38.421,-121.4238,17.84,38,0,4.63,US,1733784175
96,kincardine,56.0667,-3.7167,4.15,90,10,1.38,GB,1733784177
97,kerikeri,-35.2268,173.9474,20.51,92,95,2.41,NZ,1733784178
98,nantucket,41.2835,-70.0995,8.06,87,100,9.12,US,1733784097
99,lake havasu city,34.4839,-114.3224,21.24,8,0,13.38,US,1733784180
100,shahin dezh,36.6793,46.5669,1.62,88,7,1.13,IR,1733784181
101,maroantsetra,-15.4333,49.7333,24.16,85,65,1.18,MG,1733784182
102,atafu village,-8.5421,-172.5159,28.21,70,80,3.69,TK,1733784183
103,ushuaia,-54.8,-68.3,9.81,66,75,7.72,AR,1733784184
104,rio grande,-32.035,-52.0986,18.82,63,79,5.91,BR,1733783943
105,grants pass,42.439,-123.3284,10.01,58,0,0.0,US,1733784187
106,luanco,43.6152,-5.7934,8.9,95,86,1.57,ES,1733784188
107,tolanaro,-25.0319,46.9987,24.04,88,75,4.12,MG,1733784189
108,loukhi,66.0764,33.0381,-1.28,86,100,5.27,RU,1733784190
109,boyalik,41.2634,28.6314,13.33,86,31,5.18,TR,1733784191
110,blackmans bay,-43.0167,147.3167,13.18,83,88,0.45,AU,1733784192
111,arraial do cabo,-22.9661,-42.0278,24.98,94,100,4.12,BR,1733784193
112,ulladulla,-35.35,150.4667,19.77,77,33,4.35,AU,1733784195
113,udachny,66.4167,112.4,-36.3,100,98,1.92,RU,1733784196
114,kapuskasing,49.4169,-82.4331,-9.95,92,100,6.69,CA,1733784197
115,tarnogskiy gorodok,60.4997,43.5761,-7.87,96,86,2.91,RU,1733784198
116,rongelap,11.1635,166.8941,27.74,78,10,9.97,MH,1733784199
117,port augusta,-32.5,137.7667,23.84,45,40,8.1,AU,1733784200
118,plettenberg bay,-34.0527,23.3716,18.58,87,51,2.6,ZA,1733784201
119,bredasdorp,-34.5322,20.0403,17.32,72,100,1.42,ZA,1733784203
120,dzerzhinskoye,56.8344,95.2283,-14.99,73,72,4.12,RU,1733784204
121,benguela,-12.5763,13.4055,26.47,83,98,2.45,AO,1733784205
122,egilsstadir,65.2653,-14.3948,5.95,52,0,6.69,IS,1733784206
123,papatowai,-46.5619,169.4708,13.63,74,95,4.6,NZ,1733783950
124,avarua,-21.2078,-159.775,26.03,83,75,8.75,CK,1733784208
125,udangudi,8.4333,78.0167,25.06,86,85,4.07,IN,1733784209
126,beau vallon,-20.4189,57.6953,25.13,88,75,2.06,MU,1733784211
127,porto novo,6.4965,2.6036,26.9,74,84,2.26,BJ,1733784212
128,tchintabaraden,15.8969,5.7985,20.46,25,0,4.84,NE,1733784213
129,laojunmiao,39.8333,97.7333,-10.77,95,100,2.23,CN,1733784214
130,san patricio,28.017,-97.5169,26.97,48,17,2.15,US,1733784216
131,prado,-17.3411,-39.2208,25.46,85,7,6.03,BR,1733784217
132,yangquan,37.8575,113.5633,0.08,31,46,1.01,CN,1733784218
133,margate,51.3813,1.3862,7.71,81,100,2.68,GB,1733784220
134,saint-pierre,-21.3393,55.4781,22.82,64,0,2.57,RE,1733784221
135,oriximina,-1.7656,-55.8661,28.91,58,87,1.88,BR,1733784222
136,fu'an,27.0892,119.6453,10.21,90,24,0.9,CN,1733784223
137,ilulissat,69.2167,-51.1,-3.99,58,75,6.17,GL,1733784224
138,edinburgh of the seven seas,-37.0676,-12.3116,14.08,67,89,8.62,SH,1733784225
139,rampachodavaram,17.45,81.7667,19.8,94,99,0.83,IN,1733784226
140,kalmunai,7.4167,81.8167,23.46,90,96,3.97,LK,1733784227
141,juneau,58.3019,-134.4197,3.01,95,100,7.72,US,1733784229
142,saipan,15.1355,145.701,29.39,74,40,5.14,MP,1733784230
143,sao jose da coroa grande,-8.8978,-35.1478,25.66,74,13,5.88,BR,1733784231
144,katsuren-haebaru,26.3369,127.8719,17.01,73,20,3.6,JP,1733784232
145,castelli,-25.9468,-60.6195,16.32,91,100,2.06,AR,1733784233
146,conceicao do mato dentro,-19.0372,-43.425,21.99,81,93,1.0,BR,1733784234
147,dire,12.2833,-10.9667,24.87,25,99,0.33,ML,1733784235
148,codrington,-38.2667,141.9667,15.87,57,100,4.05,AU,1733784236
149,the pas,53.8251,-101.2541,-8.99,79,100,5.66,CA,1733784139
150,bodo,67.28,14.405,7.19,97,75,17.49,NO,1733784239
151,keflavik,64.0049,-22.5624,4.24,65,40,8.75,IS,1733784241
152,christchurch,-43.5333,172.6333,23.51,26,2,2.06,NZ,1733784217
153,formosa do rio preto,-11.0483,-45.1931,28.55,48,98,1.88,BR,1733784245
154,quincy,42.2529,-71.0023,7.22,90,100,7.2,US,1733784203
155,stanley,54.868,-1.6985,5.29,79,20,2.57,GB,1733784247
156,meadow lakes,61.6247,-149.6011,5.93,73,100,6.69,US,1733784248
157,princeton,25.5384,-80.4089,24.0,74,20,1.54,US,1733784132
158,rafraf,37.1904,10.1837,11.84,74,43,7.81,TN,1733784250
159,brackley,52.0333,-1.15,6.59,92,100,0.89,GB,1733784251
160,anar darah,32.7587,61.654,4.63,31,61,1.82,AF,1733784253
161,chonchi,-42.6128,-73.8092,12.49,61,47,0.83,CL,1733784254
162,hasaki,35.7333,140.8333,8.66,56,93,2.9,JP,1733784255
163,west island,-12.1568,96.8225,25.99,94,75,9.26,CC,1733784256
164,luanda,-8.8368,13.2343,27.0,89,20,2.57,AO,1733784114
165,happy valley-goose bay,53.3168,-60.3315,-10.83,79,75,7.72,CA,1733784258
166,puerto colombia,10.9878,-74.9547,29.05,79,5,5.02,CO,1733784259
167,argostolion,38.1811,20.489,13.92,86,70,3.56,GR,1733784260
168,kurchatov,51.6601,35.6521,1.67,84,100,3.89,RU,1733784262
169,praia da vitoria,38.7333,-27.0667,17.14,77,75,5.21,PT,1733784263
170,otjimbingwe,-22.35,16.1333,29.52,34,100,1.65,NA,1733784265
171,enewetak,11.3474,162.3373,27.92,81,51,7.74,MH,1733784266
172,pueblo nuevo,23.3833,-105.3833,14.61,48,94,1.93,MX,1733784267
173,nurdagi,37.1773,36.7419,9.4,70,61,0.9,TR,1733784268
174,port elizabeth,-33.918,25.5701,20.73,98,40,2.57,ZA,1733784042
175,bardai,11.65,7.2333,19.69,29,65,4.13,NG,1733784271
176,beyneu,45.3167,55.2,-2.86,77,5,4.47,KZ,1733784272
177,vanju-mare,44.4253,22.8697,4.41,92,47,0.98,RO,1733784273
178,vilyuysk,63.7553,121.6247,-28.47,99,100,1.55,RU,1733784274
179,bloemfontein,-29.1211,26.214,19.71,30,0,0.0,ZA,1733784275
180,kone,-21.0595,164.8658,32.92,44,1,0.67,NC,1733784276
181,rexburg,43.826,-111.7897,-1.01,64,75,3.6,US,1733784277
182,tarinkot,32.6268,65.8733,4.31,31,76,0.47,AF,1733784280
183,coquimbo,-29.9533,-71.3436,17.85,59,0,5.66,CL,1733784197
184,bhamo,24.2667,97.2333,15.59,88,9,0.52,MM,1733784282
185,ji'an,27.1172,114.9793,10.02,61,89,2.52,CN,1733784283
186,riachao das neves,-11.7461,-44.91,28.82,44,64,1.5,BR,1733784284
187,dudinka,69.4058,86.1778,-8.64,95,100,7.28,RU,1733784286
188,ain sukhna,29.6002,32.3167,15.81,48,13,1.08,EG,1733784288
189,pangai,-19.8,-174.35,29.06,70,20,7.2,TO,1733784289
190,alice springs,-23.7,133.8833,26.75,61,96,3.6,AU,1733784290
191,troy,42.6056,-83.1499,9.72,81,0,3.09,US,1733784133
192,ancud,-41.8697,-73.8203,12.21,66,9,3.62,CL,1733784293
193,cidreira,-30.1811,-50.2056,18.8,87,100,8.7,BR,1733784295
194,pionerskiy,54.9508,20.2275,0.91,88,97,7.97,RU,1733784296
195,tindouf,27.6711,-8.1474,16.25,55,0,4.12,DZ,1733784297
196,mount pearl,47.5166,-52.7813,3.97,87,75,8.75,CA,1733784298
197,rengasdengklok,-6.1592,107.2981,25.99,83,90,3.62,ID,1733784299
198,smithers,54.7804,-127.1743,-1.82,100,100,0.0,CA,1733784300
199,utrik,11.2278,169.8474,27.68,76,23,8.8,MH,1733784302
200,bafq,31.6128,55.4107,9.06,33,83,3.51,IR,1733784303
201,tabriz,38.08,46.2919,-0.3,74,0,3.09,IR,1733784304
202,sitka,57.0531,-135.33,7.94,57,40,5.14,US,1733784305
203,tidjikja,18.5564,-11.4271,20.86,14,100,3.2,MR,1733784307
204,kristiansund,63.1115,7.732,5.36,70,92,4.63,NO,1733784308
205,puerto santa,-8.9906,-78.6456,19.41,85,10,3.62,PE,1733784310
206,hadibu,12.65,54.0333,24.28,64,74,5.94,YE,1733784311
207,whitehorse,60.7161,-135.0538,-4.95,85,75,9.77,CA,1733784312
208,selizharovo,56.8519,33.4487,-3.95,85,15,1.18,RU,1733784313
209,aberystwyth,52.4155,-4.0829,6.44,72,49,6.81,GB,1733784314
210,kijang,35.2442,129.2139,-2.15,64,0,2.52,KR,1733784315
211,kapa'a,22.0752,-159.319,26.18,83,20,5.14,US,1733784316
212,chipinge,-20.1883,32.6236,17.74,90,40,2.47,ZW,1733784318
213,dunedin,-45.8742,170.5036,18.78,59,91,1.34,NZ,1733784319
214,nova sintra,14.8667,-24.7167,24.73,69,0,4.39,CV,1733784320
215,camana,-16.6228,-72.7111,19.49,87,100,3.68,PE,1733784072
216,lompoc,34.6391,-120.4579,21.23,65,0,5.14,US,1733784322
217,siwa oasis,29.2041,25.5195,14.41,44,41,2.38,EG,1733784323
218,santiago de cao,-7.9589,-79.2392,19.07,82,0,5.66,PE,1733784324
219,pokhara,28.2333,83.9833,8.62,26,15,3.11,NP,1733784325
220,arkhangel'sk,64.5401,40.5433,-1.94,93,40,4.0,RU,1733784120
221,mossel bay,-34.1831,22.146,17.96,80,71,2.56,ZA,1733784328
222,chui,-33.6971,-53.4616,14.6,76,47,3.11,UY,1733784329
223,isafjordur,66.0755,-23.124,1.13,67,13,16.95,IS,1733784330
224,sinop,41.7711,34.8709,10.3,75,72,6.16,TR,1733784331
225,al artawiyah,26.5053,45.3444,13.48,52,0,4.12,SA,1733784332
226,salinopolis,-0.6136,-47.3561,26.78,79,8,5.65,BR,1733784333
227,sinabang,2.4803,96.3801,25.82,84,100,1.84,ID,1733784334
228,puerto armuelles,8.2833,-82.8667,26.16,71,20,0.45,PA,1733784336
229,aasiaat,68.7098,-52.8699,-10.27,88,100,3.78,GL,1733784337
230,lebu,-37.6167,-73.65,12.67,73,0,7.56,CL,1733784193
231,bestobe,52.4994,73.0975,-22.11,96,8,4.48,KZ,1733784073
232,meulaboh,4.1363,96.1285,25.08,87,100,1.78,ID,1733784340
233,zhuanghe,39.7008,122.9911,-0.98,58,0,1.6,CN,1733784341
234,bayganin,48.6947,55.8742,-6.05,53,100,2.85,KZ,1733784342
235,tura,25.5198,90.2201,13.58,78,16,1.54,IN,1733784343
236,sampit,-2.5333,112.95,24.61,96,100,0.56,ID,1733784346
237,gadzhiyevo,69.2551,33.3362,1.17,92,100,13.75,RU,1733784347
238,saint-joseph,-21.3667,55.6167,22.21,82,29,4.36,RE,1733784348
239,popondetta,-8.7537,148.2534,31.72,55,82,0.9,PG,1733784349
240,jiwani,25.05,61.7417,20.54,36,2,3.5,PK,1733784350
241,yazman,29.1212,71.7446,12.63,19,5,3.37,PK,1733784351
242,midvagur,62.0511,-7.1939,8.46,100,100,3.6,FO,1733784353
243,sevastopol,44.6,33.5333,12.22,61,100,2.24,UA,1733784354
244,selfoss,63.9331,-20.9971,2.8,67,14,7.05,IS,1733784355
245,ntungamo,-0.8833,29.65,19.7,69,67,1.4,UG,1733784356
246,point pedro,9.8167,80.2333,26.36,79,100,4.83,LK,1733784357
247,port sudan,19.6175,37.2164,24.7,70,26,5.52,SD,1733784358
248,weno,7.4515,151.8468,30.97,74,75,3.6,FM,1733784359
249,zvishavane,-20.3267,30.0665,23.18,51,44,1.87,ZW,1733784360
250,keetmanshoop,-26.5833,18.1333,30.51,19,44,4.12,NA,1733784362
251,new norfolk,-42.7826,147.0587,13.84,78,97,3.01,AU,1733783868
252,xilin hot,43.9667,116.0333,-13.53,97,41,0.72,CN,1733784364
253,beltran,-27.8291,-64.061,22.81,55,24,2.53,AR,1733784365
254,zaozersk,69.4005,32.4476,0.62,94,100,13.44,RU,1733784366
255,nacala,-14.5428,40.6728,25.93,88,46,1.95,MZ,1733784367
256,illizi,26.4833,8.4667,15.1,19,30,1.83,DZ,1733784368
257,vila franca do campo,37.7167,-25.4333,18.27,99,100,3.28,PT,1733784369
258,nuriootpa,-34.4833,139.0,19.43,51,4,3.5,AU,1733784371
259,zeya,53.75,127.2667,-16.41,98,100,0.29,RU,1733783906
260,palatka,29.6486,-81.6376,21.16,76,100,0.61,US,1733784141
261,bairnsdale,-37.8333,147.6167,17.81,70,57,0.45,AU,1733784374
262,north bend,43.4065,-124.2243,11.2,61,0,3.06,US,1733784375
263,vadso,70.0744,29.7487,4.09,81,75,9.77,NO,1733783921
264,port lincoln,-34.7333,135.8667,17.11,67,29,5.99,AU,1733784375
265,prince edward,44.0001,-77.2495,-0.14,95,100,1.79,CA,1733784379
266,rio gallegos,-51.6226,-69.2181,16.03,41,0,4.12,AR,1733784380
267,poronaysk,49.2167,143.1167,-11.51,84,19,3.4,RU,1733784381
268,monaghan,54.25,-6.9667,0.69,94,19,2.15,IE,1733784382
269,salalah,17.0151,54.0924,23.05,60,0,1.54,OM,1733784383
270,orsa,54.5153,30.4053,-3.23,97,82,3.5,BY,1733784384
271,dour,50.3958,3.7779,4.78,88,99,5.99,BE,1733784385
272,al kharijah,25.4514,30.5464,13.93,38,0,3.42,EG,1733784386
273,jabor,5.921,169.6434,28.27,78,95,8.39,MH,1733784387
274,ta`u,-14.2336,-169.5144,27.34,72,100,4.58,AS,1733784389
275,jumla,29.2747,82.1838,-6.12,39,1,2.26,NP,1733784390
276,vorgashor,67.5833,63.95,-10.13,94,100,6.6,RU,1733784391
277,novo aripuana,-5.1206,-60.3797,26.89,76,98,0.37,BR,1733784392
278,pizarro,4.9533,-77.366,25.73,87,40,2.48,CO,1733784393
279,magadan,59.5667,150.8,-12.89,78,91,4.89,RU,1733784394
280,colonia,50.9333,6.95,6.08,87,40,3.6,DE,1733784368
281,la ronge,55.1001,-105.2842,-8.86,79,75,2.57,CA,1733784396
282,yaren,-0.5472,166.916,27.63,81,70,4.49,NR,1733784397
283,east london,-33.0153,27.9116,22.4,91,68,2.1,ZA,1733784399
284,manicore,-5.8092,-61.3003,26.46,80,94,1.34,BR,1733784400
285,kuala perlis,6.4,100.1333,23.77,96,100,1.6,MY,1733784401
286,petropavlovsk-kamchatsky,53.0452,158.6483,-9.67,79,40,2.0,RU,1733783872
287,afaahiti,-17.75,-149.2833,25.53,78,78,9.02,PF,1733784403
288,chadron,42.8294,-102.9999,1.82,67,75,5.14,US,1733784282
289,wenchang,30.904,118.4887,8.23,74,100,1.89,CN,1733784405
290,kharp,66.8014,65.8081,-9.44,89,100,3.74,RU,1733784406
291,jamestown,42.097,-79.2353,6.8,100,100,3.6,US,1733783845
292,twon-brass,4.3151,6.2418,27.63,77,82,4.75,NG,1733784409
293,bichura,50.5881,107.6022,-19.36,92,92,1.48,RU,1733784410
294,mimoso do sul,-21.0642,-41.3664,21.88,99,28,2.57,BR,1733784411
295,nuuk,64.1835,-51.7216,-2.66,80,75,4.63,GL,1733784412
296,grantsville,40.5999,-112.4644,2.38,59,0,4.92,US,1733784413
297,vilyuchinsk,52.9306,158.4028,-8.85,90,84,2.7,RU,1733784414
298,tuma,55.148,40.5537,-1.87,99,100,1.09,RU,1733784415
299,bata,1.8639,9.7658,26.13,84,100,3.12,GQ,1733784417
300,horta,38.5333,-28.6333,18.34,80,100,10.28,PT,1733784418
301,taulaga,-11.0553,-171.0883,27.32,72,96,1.37,AS,1733784419
302,altamira,-3.2033,-52.2064,24.05,91,100,1.1,BR,1733784367
303,taoudenni,22.6783,-3.9836,20.17,14,94,1.97,ML,1733783852
304,chibougamau,49.9168,-74.3659,-12.21,79,100,3.6,CA,1733783981
305,kruisfontein,-34.0033,24.7314,17.7,93,34,3.69,ZA,1733784423
306,zhosaly,45.4878,64.0781,-7.36,75,7,4.4,KZ,1733784424
307,ad dabbah,18.05,30.95,22.28,27,1,6.48,SD,1733784426
308,alotau,-10.3069,150.4462,30.89,64,91,1.83,PG,1733784427
309,as sulayyil,20.4607,45.5779,17.45,37,91,1.86,SA,1733784428
310,hankasalmi,62.3833,26.4333,-1.16,77,100,4.69,FI,1733784429
311,chernyshevskiy,63.0128,112.4714,-24.51,99,94,1.67,RU,1733784430
312,anadyr,64.75,177.4833,-15.72,84,100,5.0,RU,1733784431
313,brumado,-14.2036,-41.6653,24.64,40,0,1.72,BR,1733784434
314,carbonear,47.7332,-53.2148,4.08,82,82,10.53,CA,1733784435
315,cheremukhovo,60.3484,59.9851,-8.44,88,100,1.09,RU,1733784436
316,okha,53.5739,142.9478,-6.74,71,100,7.21,RU,1733784437
317,baicheng,45.6167,122.8167,-11.4,82,56,3.02,CN,1733784438
318,fort bragg,35.139,-79.006,14.91,84,100,4.12,US,1733784439
319,fort st. john,56.2499,-120.8529,-10.06,92,75,3.6,CA,1733784440
320,ryotsu-minato,38.0833,138.4333,6.41,62,72,4.04,JP,1733784441
321,hailey,43.5196,-114.3153,2.92,34,40,4.12,US,1733784429
322,leava,-14.3,-178.1667,27.73,75,100,4.28,WF,1733784444
323,kenora,49.8167,-94.4337,-8.46,92,100,4.12,CA,1733784401
324,roma,43.2128,-75.4557,2.59,96,100,4.12,US,1733783763
325,sesvete,45.8311,16.1164,4.33,93,100,1.03,HR,1733784447
326,kailua-kona,19.6406,-155.9956,28.09,71,20,5.14,US,1733784448
327,klyuchi,52.2667,79.1667,-24.26,100,88,1.28,RU,1733784449
328,kolonia,50.9333,6.95,6.08,87,40,3.6,DE,1733784450
329,minas de marcona,-15.2119,-75.1103,17.25,74,86,6.96,PE,1733783871
330,arnage,47.9262,0.1878,6.07,81,100,5.14,FR,1733784453
331,fortaleza,-3.7227,-38.5247,27.9,74,20,5.14,BR,1733784454
332,qaqortoq,60.7167,-46.0333,-4.24,89,100,4.1,GL,1733784001
333,villa emilio carranza,19.9667,-96.6,26.07,74,69,5.99,MX,1733784456
334,okhotsk,59.3833,143.3,-18.02,81,95,8.22,RU,1733784457
335,cristalina,-16.7686,-47.6136,21.9,65,95,0.2,BR,1733784458
336,flying fish cove,-10.4217,105.6791,24.82,94,100,2.57,CX,1733784459
337,tsaratanana,-16.7833,47.65,23.63,68,11,3.32,MG,1733784460
338,herceg novi,42.4531,18.5375,10.04,100,100,0.51,ME,1733784462
339,chapaev,50.2,51.1667,-6.15,51,93,3.82,KZ,1733784463
340,fortuna,40.5982,-124.1573,15.55,47,0,0.0,US,1733783990
341,liberty,31.8335,-81.5004,19.06,84,100,1.79,US,1733784465
342,buka,40.8108,69.1986,-4.68,60,3,1.71,UZ,1733784023
343,gering,41.8258,-103.6605,2.07,54,100,9.26,US,1733784467
344,pacocha,-17.5833,-71.3333,18.84,86,100,2.19,PE,1733784468
345,wiltz,49.9689,5.9319,3.38,86,100,6.01,LU,1733784469
346,chania,35.5122,24.0156,14.78,82,40,0.0,GR,1733784470
347,hojai,26.0,92.8667,15.52,78,84,0.59,IN,1733784472
348,katsuura,35.1333,140.3,8.73,68,99,4.39,JP,1733784473
349,santa cruz,-17.8,-63.1667,27.7,83,75,3.6,BO,1733784329
350,kisangani,0.5167,25.2,22.28,71,22,0.54,CD,1733784475
351,hun,29.1268,15.9477,15.8,26,81,2.48,LY,1733784476
352,palmer,42.1584,-72.3287,4.75,76,100,2.06,US,1733784477
353,lyantor,61.6195,72.1555,-9.79,92,100,8.38,RU,1733784478
354,barbacoas,1.6715,-78.1398,24.94,89,86,1.52,CO,1733784481
355,mugia,43.1041,-9.2179,11.94,78,60,7.33,ES,1733784482
356,kavieng,-2.5744,150.7967,29.13,71,68,3.01,PG,1733784483
357,taro,-8.3862,115.28,21.68,95,100,0.72,ID,1733784484
358,balezino,57.9796,53.0106,-4.45,96,100,3.5,RU,1733784485
359,nuku'alofa,-21.1333,-175.2,29.19,79,40,7.2,TO,1733784486
360,alness,57.696,-4.2551,0.39,93,3,1.72,GB,1733784487
361,kingston,17.997,-76.7936,29.53,74,20,6.69,JM,1733783711
362,kutum,14.2,24.6667,17.93,29,7,4.44,SD,1733784490
363,barra velha,-26.6322,-48.6847,18.95,97,100,4.37,BR,1733784491
364,tralee,52.2704,-9.7026,1.03,96,15,1.92,IE,1733784452
365,mora,11.0461,14.1401,22.17,32,27,2.31,CM,1733784493
366,panama city beach,30.1766,-85.8055,22.23,88,100,3.09,US,1733784494
367,el granada,37.5027,-122.4694,18.34,28,0,4.12,US,1733784495
368,mhamid,29.82,-5.72,16.64,49,100,1.67,MA,1733784496
369,tazovsky,67.4667,78.7,-11.21,93,100,6.27,RU,1733784498
370,lamu,-2.2717,40.902,25.91,88,21,2.97,KE,1733784500
371,padang,-0.9492,100.3543,24.03,88,100,2.0,ID,1733784501
372,yazd,31.8972,54.3675,7.06,39,40,2.06,IR,1733784502
373,prakhon chai,14.6059,103.1208,18.2,91,53,3.42,TH,1733784503
374,kuraymah,18.55,31.85,22.76,27,1,7.08,SD,1733784506
375,mikuni,36.2171,136.1519,5.74,77,15,2.78,JP,1733784507
376,nuevo imperial,-13.0754,-76.3172,21.32,76,97,2.3,PE,1733784508
377,baley,51.6,116.6333,-20.03,95,96,2.57,RU,1733784509
378,farmville,37.3021,-78.3919,12.66,82,0,3.6,US,1733784510
379,mogocha,53.7333,119.7667,-22.07,94,31,1.75,RU,1733784511
380,karratha,-20.7377,116.8463,29.45,68,100,7.76,AU,1733784512
381,crane,31.3974,-102.3501,20.44,19,0,6.21,US,1733784513
382,san luis de la loma,17.2706,-100.8939,27.56,72,100,1.98,MX,1733784515
383,las lomitas,-24.7096,-60.593,18.25,91,100,2.6,AR,1733784516
384,labrador city,52.9463,-66.9114,-19.05,84,75,2.57,CA,1733784517
385,pinheiro machado,-31.5783,-53.3811,15.03,85,77,4.16,BR,1733784518
386,bemidji,47.4736,-94.8803,-4.41,95,100,7.2,US,1733784346
387,yarkovo,57.4028,67.0786,-9.41,75,100,5.41,RU,1733784520
388,flin flon,54.7682,-101.865,-9.09,79,100,2.57,CA,1733784521
389,port saint john's,-31.6229,29.5448,23.59,94,10,1.44,ZA,1733784522
390,fergus falls,46.283,-96.0776,-6.01,92,100,11.83,US,1733784523
391,pagar alam,-4.0167,103.2667,20.13,95,76,1.63,ID,1733784525
392,caleta de carquin,-11.0925,-77.6267,20.66,82,72,4.6,PE,1733784526
393,celendin,-6.8703,-78.1517,14.97,82,90,2.22,PE,1733784527
394,bovalino,38.149,16.174,9.06,73,5,2.67,IT,1733784559
395,carutapera,-1.195,-46.02,25.69,84,17,2.78,BR,1733784560
396,westport,41.1415,-73.3579,9.34,90,100,6.17,US,1733784353
397,aral,40.5156,81.2636,-7.18,99,52,2.1,CN,1733784564
398,rosarito,32.3333,-117.0333,17.54,74,14,3.3,MX,1733784480
399,severo-yeniseyskiy,60.3725,93.0408,-15.13,89,100,6.16,RU,1733784566
400,dakhla,23.6848,-15.958,19.1,88,99,6.74,EH,1733784567
401,egersund,58.4513,5.9997,2.5,65,0,1.59,NO,1733784568
402,portland,45.5234,-122.6762,10.71,79,20,2.57,US,1733783761
403,st. john's,47.5649,-52.7093,4.43,86,75,8.75,CA,1733783775
404,tarutyne,46.1858,29.1506,4.25,89,44,3.22,UA,1733784572
405,lata,40.1629,-8.3327,3.92,83,0,1.46,PT,1733784573
406,tikamgarh,24.745,78.8333,10.02,33,1,1.81,IN,1733784574
407,sayat,38.7839,63.8803,0.29,46,100,4.29,TM,1733784575
408,mushie,-3.0167,16.9,23.66,79,31,1.36,CD,1733784576
409,hobbs,32.7026,-103.136,20.05,17,0,2.24,US,1733784577
410,al jammaliyah,31.1809,31.8652,16.98,71,94,2.7,EG,1733784579
411,santa ana,33.7456,-117.8678,21.17,52,20,4.12,US,1733784021
412,peterborough,52.5736,-0.2478,7.16,87,100,8.75,GB,1733784479
413,daru,-9.0763,143.2092,28.75,76,95,2.31,PG,1733784583
414,puchezh,56.9788,43.1676,-4.29,95,87,4.75,RU,1733784585
415,melekeok village,7.4957,134.6367,28.31,83,75,3.6,PW,1733784586
416,rurrenabaque,-14.4413,-67.5278,30.83,79,75,2.06,BO,1733784587
417,quibala,-10.7337,14.98,17.1,96,98,0.61,AO,1733784588
418,cruzeiro do sul,-29.5128,-51.9853,20.29,85,100,2.41,BR,1733784590
419,asaita,11.5636,41.4394,24.13,47,13,3.47,ET,1733784591
420,aqadyr,48.2553,72.8483,-25.76,99,31,1.39,KZ,1733784592
421,sambava,-14.2667,50.1667,23.49,89,14,3.83,MG,1733784593
422,victoria point,-27.5833,153.3,27.17,81,100,3.84,AU,1733784594
423,polyarnyy,69.1989,33.4478,1.09,93,100,13.27,RU,1733784595
424,bargaal,11.2864,51.0773,23.62,70,74,5.42,SO,1733784596
425,banchory,57.0517,-2.4882,4.05,92,7,1.38,GB,1733784597
426,smara,26.7384,-11.6719,16.0,78,100,4.46,EH,1733784599
427,castanos,26.7833,-101.4167,27.41,21,0,5.14,MX,1733784371
428,sola,-13.8833,167.55,27.95,76,100,4.63,VU,1733784601
429,lhokseumawe,5.1801,97.1507,24.29,93,100,3.11,ID,1733784602
430,harstad,68.799,16.5293,5.64,97,100,11.62,NO,1733784603
431,mandalgovi,45.7625,106.2708,-12.02,83,5,5.35,MN,1733784604
432,mili,6.0815,171.735,28.46,79,94,8.35,MH,1733784605
433,tucupita,9.0622,-62.051,26.08,76,65,3.18,VE,1733784606
434,lun pequeno,6.0378,125.2839,26.68,80,77,2.68,PH,1733784608
435,uturoa,-16.7333,-151.4333,26.84,77,45,8.71,PF,1733784609
436,heber city,40.5069,-111.4132,-0.03,49,0,6.17,US,1733784610
437,clairton,40.2923,-79.8817,12.77,85,100,4.12,US,1733784611
438,luderitz,-26.6481,15.1594,21.77,42,0,8.65,NA,1733784612
439,ubari,26.5921,12.7805,14.22,23,62,2.38,LY,1733784613
440,mrakovo,52.7161,56.6244,-11.18,88,99,2.66,RU,1733784614
441,guerrero negro,27.9769,-114.0611,18.11,66,12,6.59,MX,1733784372
442,sarpol-e zahab,34.4611,45.8626,11.6,54,0,1.36,IR,1733784616
443,petauke,-14.2426,31.3253,22.07,66,75,1.27,ZM,1733784618
444,reitz,-27.8014,28.4273,19.3,57,69,4.87,ZA,1733784619
445,essaouira,31.5125,-9.77,13.72,62,96,3.6,MA,1733784620
446,komotini,41.1228,25.3964,12.04,86,29,2.08,GR,1733784621
447,urucui,-7.2294,-44.5561,27.8,54,51,0.34,BR,1733784622
448,nadym,65.5333,72.5167,-10.34,94,100,7.04,RU,1733784624
449,stettler,52.3168,-112.7186,-5.87,85,93,3.3,CA,1733784625
450,achinsk,56.2694,90.4993,-21.47,97,100,2.93,RU,1733784626
451,haiku-pauwela,20.9219,-156.3051,27.34,67,40,12.07,US,1733784628
452,masterton,-40.9597,175.6575,21.08,38,24,2.82,NZ,1733784629
453,tananger,58.9333,5.6,-0.95,86,0,0.0,NO,1733784630
454,chyorny yar,48.0624,46.1091,-2.77,71,16,5.14,RU,1733784632
455,kirakira,-10.4544,161.9205,27.36,87,100,3.39,SB,1733784633
456,lesozavodsk,45.4794,133.4244,-13.68,95,89,3.02,RU,1733784635
457,pisco,-13.7,-76.2167,20.03,77,0,10.29,PE,1733784636
458,kaa-khem,51.6833,94.7333,-19.93,91,80,1.62,RU,1733784637
459,cannonvale,-20.2833,148.7,27.66,64,40,3.13,AU,1733784638
460,tadine,-21.55,167.8833,28.14,69,10,4.28,NC,1733784639
461,mount pleasant,32.7941,-79.8626,18.36,83,75,3.6,US,1733784640
462,saint-philippe,-21.3585,55.7679,24.6,85,36,3.97,RE,1733784642
463,canutama,-6.5339,-64.3831,27.98,72,85,1.06,BR,1733784643
464,abalak,58.1286,68.5944,-9.21,76,100,5.02,RU,1733784644
465,prince rupert,54.3161,-130.3201,5.83,80,40,6.17,CA,1733784646
466,gao,16.6362,1.637,19.03,13,43,4.89,ML,1733784647
467,revda,56.801,59.9303,-6.39,86,100,6.05,RU,1733784648
468,gadhinglaj,16.2333,74.35,19.11,57,67,1.92,IN,1733784649
469,homer,59.6425,-151.5483,7.94,70,75,5.36,US,1733784651
470,kovdor,67.5662,30.4758,-1.48,84,100,6.63,RU,1733784652
471,howrah,22.5892,88.3103,17.0,88,40,2.57,IN,1733784653
472,rosales,15.8944,120.6328,23.85,86,98,3.67,PH,1733784655
473,quito,-0.2299,-78.5249,14.53,88,99,1.22,EC,1733784365
474,ulsteinvik,62.3432,5.8487,5.07,74,88,0.89,NO,1733784657
475,nemuro,43.3236,145.575,-1.97,67,37,9.84,JP,1733784659
476,ostersund,63.1792,14.6357,1.25,64,20,6.69,SE,1733784513
477,omdurman,15.6445,32.4777,26.94,30,2,8.21,SD,1733784661
478,nasice,45.4886,18.0878,3.19,98,100,1.66,HR,1733784662
479,satipo,-11.2522,-74.6386,22.27,99,99,0.34,PE,1733784663
480,elze,52.1226,9.736,5.5,100,100,6.28,DE,1733784664
481,ironwood,46.4547,-90.171,0.45,86,100,4.12,US,1733784665
482,manado,1.487,124.8455,26.43,89,20,1.03,ID,1733784666
483,skelleftea,64.7507,20.9528,5.2,85,75,5.66,SE,1733784669
484,vandavasi,12.5,79.6167,22.98,94,90,3.42,IN,1733784670
485,altay,47.8667,88.1167,-16.95,73,20,3.16,CN,1733784671
486,iquique,-20.2208,-70.1431,19.13,75,48,2.49,CL,1733784541
487,kristinestad,62.2743,21.376,3.26,78,100,8.13,FI,1733784673
488,bijie,27.3125,105.2942,1.23,97,100,2.09,CN,1733784674
489,niemodlin,50.642,17.6193,1.25,38,100,3.76,PL,1733784675
490,al 'aziziyah,32.9058,45.0616,14.39,46,1,6.13,IQ,1733784676
491,luganville,-15.5333,167.1667,29.14,74,82,3.54,VU,1733784678
492,puerto aysen,-45.4,-72.7,12.69,83,98,1.82,CL,1733784491
493,pangody,65.85,74.4859,-10.19,94,100,7.3,RU,1733784680
494,elliot lake,46.3834,-82.6331,-2.08,98,100,3.91,CA,1733784681
495,mount isa,-20.7333,139.5,29.87,70,75,1.54,AU,1733784682
496,rio verde,21.9333,-99.9833,28.45,36,87,3.31,MX,1733784683
497,acarau,-2.8856,-40.12,26.76,77,74,6.85,BR,1733784684
498,tlahualilo de zaragoza,26.1167,-103.45,23.62,24,22,2.26,MX,1733784685
499,sragen,-7.4264,111.0222,25.59,88,99,6.82,ID,1733784686
500,mirny,62.5353,113.9611,-24.68,99,95,2.22,RU,1733784688
501,road town,18.4167,-64.6167,26.02,78,40,5.66,VG,1733784689
502,skive,56.5667,9.0333,0.65,91,20,2.68,DK,1733784690
503,pachelma,53.2443,43.3521,-6.8,93,98,2.81,RU,1733784691
504,serro,-18.6047,-43.3794,21.09,87,96,1.87,BR,1733784692
505,esmeraldas,-19.7625,-44.3139,22.91,72,95,1.39,BR,1733784693
506,caconde,-21.5294,-46.6439,21.0,92,100,0.38,BR,1733784694
507,malyye derbety,47.9547,44.6808,-1.65,72,30,4.97,RU,1733784695
508,camacupa,-12.0167,17.4833,16.67,98,95,1.63,AO,1733784697
509,hithadhoo,-0.6,73.0833,27.37,73,98,6.23,MV,1733784698
510,imeko,7.45,2.85,23.69,60,85,0.95,NG,1733784699
511,siklos,45.855,18.2975,3.58,90,100,2.06,HU,1733784700
512,fuglafjordur,62.244,-6.814,8.63,92,78,8.62,FO,1733784701
513,benton,36.3334,-94.3335,10.95,84,100,1.54,US,1733784685
514,phek,25.6667,94.5,6.23,81,98,0.25,IN,1733784704
515,arkalyk,50.2486,66.9114,-20.47,96,11,2.41,KZ,1733784705
516,sylvan lake,52.3168,-114.0853,-1.24,64,75,3.09,CA,1733784606
517,natal,-5.795,-35.2094,27.12,74,20,4.12,BR,1733784546
518,fort mcmurray,56.7268,-111.381,-7.23,79,100,6.69,CA,1733784702
519,puerto madero,14.7208,-92.4215,27.74,71,0,2.2,MX,1733784709
520,caraballeda,10.6112,-66.8522,28.04,69,25,5.66,VE,1733784710
521,ha'il,27.5219,41.6907,11.01,62,0,1.03,SA,1733784712
522,nizhneudinsk,54.9076,99.0276,-17.71,93,33,1.39,RU,1733784713
523,burang,30.25,81.1667,-18.0,72,0,1.05,CN,1733784714
524,pindi gheb,33.2402,72.2661,7.79,15,82,2.24,PK,1733784715
525,kilindoni,-7.9139,39.6668,26.49,81,10,3.44,TZ,1733784716
526,dalai,45.5,124.3,-15.74,95,42,1.98,CN,1733784717
527,dunlap,41.6378,-85.9217,8.96,74,86,2.78,US,1733784718
528,salahonda,2.1019,-78.7217,25.37,83,62,4.9,CO,1733784720
529,malmslatt,58.411,15.5165,-0.97,93,100,1.03,SE,1733784721
530,lakhtar,22.85,71.7833,13.93,25,20,3.85,IN,1733784722
531,am timan,11.0297,20.2827,24.91,27,49,2.96,TD,1733784723
532,zaysan,47.4667,84.8667,-16.58,74,0,1.95,KZ,1733784432
533,isla vista,34.4133,-119.861,20.43,71,38,1.34,US,1733784510
534,hobyo,5.3505,48.5268,25.48,71,73,8.38,SO,1733784726
535,lensk,60.7253,114.9278,-15.07,92,100,5.49,RU,1733784727
536,malango,-2.9627,119.9001,20.8,92,100,1.35,ID,1733784729
537,dalandzadgad,43.5708,104.425,-10.01,66,94,3.61,MN,1733784730
538,agadez,19.75,10.25,13.5,25,79,0.65,NE,1733784731
539,ciudad lazaro cardenas,17.9583,-102.2,28.34,66,59,3.42,MX,1733784732
540,zarasai,55.7333,26.25,-2.24,88,22,2.58,LT,1733784733
541,howard springs,-12.497,131.047,28.23,97,100,3.86,AU,1733784734
542,mae hong son,19.3003,97.9685,27.08,74,75,0.0,TH,1733784735
543,sinan,34.8262,126.1086,8.35,54,26,7.47,KR,1733784736
544,marcala,14.15,-88.0333,21.71,81,2,2.11,HN,1733784738
545,pathein,16.7833,94.7333,23.67,87,54,2.11,MM,1733784739
546,kota bharu,6.1333,102.2386,23.97,94,40,3.13,MY,1733784740
547,an nuhud,12.7,28.4333,22.01,27,14,7.2,SD,1733784741
548,barrow in furness,54.1167,-3.2333,6.15,81,18,5.67,GB,1733784743
549,hlusk,52.903,28.6845,1.38,81,100,4.51,BY,1733784744
550,ilomantsi,62.6716,30.9328,-1.64,72,100,4.72,FI,1733784745
551,hola,51.5377,23.1902,1.38,94,100,4.98,PL,1733784747
552,kostyantynivka,48.5277,37.7069,2.7,89,98,5.24,UA,1733784748
553,funafuti,-8.5243,179.1942,32.0,66,75,3.09,TV,1733784749
554,tegueste,28.5167,-16.3167,17.82,73,75,4.92,ES,1733784750
555,metro,-5.1131,105.3067,24.41,91,61,0.89,ID,1733784752
556,santa rosalia,27.3167,-112.2833,22.93,30,5,1.84,MX,1733784753
557,nadi,-17.8,177.4167,31.0,58,75,4.12,FJ,1733784754
558,sur,22.5667,59.5289,21.67,46,7,2.03,OM,1733784756
559,trairi,-3.2778,-39.2689,26.51,75,74,4.51,BR,1733784516
560,jayapura,-2.5333,140.7,27.66,85,100,1.0,ID,1733784758
561,martapura,-3.4167,114.85,26.05,100,75,3.09,ID,1733784759
562,al wajh,26.2455,36.4525,18.97,37,0,2.06,SA,1733784760
563,hanceville,34.0607,-86.7675,18.95,98,100,2.92,US,1733784761
564,freetown,8.484,-13.2299,27.84,69,75,2.57,SL,1733784762
565,karoi,-16.8099,29.6925,20.22,64,52,1.82,ZW,1733784763
566,liuduzhai,27.3661,110.935,5.0,82,100,1.34,CN,1733784765
567,saint-louis du nord,19.9333,-72.7167,26.74,82,83,9.41,HT,1733784766
568,tofol,5.3248,163.0078,28.83,75,79,9.75,FM,1733784767
569,isla del bosque,22.7333,-105.85,25.32,60,24,5.73,MX,1733784657
570,kavaratti,10.5669,72.642,27.31,75,70,3.54,IN,1733784770
571,kamenka,51.3223,42.7678,-4.54,89,100,2.93,RU,1733784771
572,talara,-4.5772,-81.2719,23.42,68,0,7.72,PE,1733784772
573,goya,-29.14,-59.2626,20.03,65,87,1.86,AR,1733784663
574,aurora,39.7294,-104.8319,0.92,49,75,8.23,US,1733784494
575,ponta pora,-22.5361,-55.7256,21.86,96,100,1.97,BR,1733784776
576,belyy yar,53.6039,91.3903,-17.06,85,75,0.0,RU,1733784778
